[
{"title": "영덕솔발산풍력", "type": "wind", "region": "경북", "lat": 36.328803, "lng": 129.3401453, "address": "경상북도 영덕군 남정면 사암리 산13번지", "owner": "㈜대산풍력", "shareholder": "㈜대성에스지엠", "capacity": "22.50 MW", "planPeriod": "", "prepPeriod": "23년 7월" },
{"title": "포항동해풍력", "type": "wind", "region": "경북", "lat": 36.0113664, "lng": 129.4937727, "address": "경상북도 포항시 남구 동해면 마산리 산10, 산26, 산30번지", "owner": "포항동해풍력발전 주식회사", "shareholder": "더블유피디 코리아 홀딩", "capacity": "49.60 MW", "planPeriod": "", "prepPeriod": "30년 3월" },
{"title": "자은주민바람", "type": "wind", "region": "전남", "lat": 34.8947622, "lng": 126.0207621, "address": "전라남도 신안군 자은면 고장리 산266-11 등 7필지", "owner": "자은주민바람발전소㈜", "shareholder": "카이에너지그룹㈜", "capacity": "29.40 MW", "planPeriod": "", "prepPeriod": "24년 3월" },
{"title": "경주왕신풍력", "type": "wind", "region": "경북", "lat": 35.9422455, "lng": 129.2817314, "address": "경상북도 경주시 강동면 왕신리 산217, 산218 일원", "owner": "경주왕신풍력㈜", "shareholder": "비이와알이윈드에셋홀딩코리아", "capacity": "15.0 MW", "planPeriod": "", "prepPeriod": "28년 12월" },
{"title": "영덕창포해맞이풍력", "type": "wind", "region": "경북", "lat": 36.4196457, "lng": 129.4201616, "address": "경상북도 영덕군 영덕읍 창포리 30, 산17, 산37, 산37-1, 산64", "owner": "영덕창포해맞이풍력㈜", "shareholder": "영덕창포해맞이풍력㈜", "capacity": "31.0 MW", "planPeriod": "", "prepPeriod": "28년 12월" },
{"title": "삼척판문풍력", "type": "wind", "region": "강원", "lat": 37.2585054, "lng": 128.9113006, "address": "강원 삼척시 하장면 판문리 산68-1, 산70, 산72, 산74, 산75일원", "owner": "한국동서발전㈜", "shareholder": "㈜한국전력공사", "capacity": "31.0 MW", "planPeriod": "", "prepPeriod": "30년 8월" },
{"title": "삼척용연풍력", "type": "wind", "region": "강원", "lat": 37.306266, "lng": 128.9339739, "address": "강원 삼척시 하장면 용연리 산184, 산181, 산182, 산198 일원", "owner": "한국동서발전㈜", "shareholder": "한국전력공사", "capacity": "31.0 MW", "planPeriod": "", "prepPeriod": "30년 8월" },
{"title": "영천고경풍력", "type": "wind", "region": "경북", "lat": 36.0431087, "lng": 129.1097964, "address": "경북 영천시 임고면 수성리 산11-1번지 일원", "owner": "천장산풍력㈜", "shareholder": "한화오션㈜", "capacity": "37.20 MW", "planPeriod": "", "prepPeriod": "27년 8월" },
{"title": "태백장성풍력", "type": "wind", "region": "강원", "lat": 37.1104131, "lng": 129.0191546, "address": "강원 태백시 장성동 산1 일원", "owner": "㈜대우건설", "shareholder": "중흥토건㈜", "capacity": "47.30 MW", "planPeriod": "", "prepPeriod": "30년 6월" },
{"title": "보령개화풍력", "type": "wind", "region": "충남", "lat": 36.2901742, "lng": 126.6625237, "address": "충남 보령시 미산면 풍계리 산1-2, 산18", "owner": "개화풍력발전 유한회사", "shareholder": "더블유피디 코리아 홀딩", "capacity": "21.0 MW", "planPeriod": "", "prepPeriod": "30년 6월" },
{"title": "경주운곡풍력", "type": "wind", "region": "경북", "lat": 35.9444618, "lng": 129.2977948, "address": "경북 경주시 강동면 왕신리 산87-1, 산126, 산177, 산178-1", "owner": "코오롱글로벌㈜", "shareholder": "㈜코오롱", "capacity": "87.20 MW", "planPeriod": "", "prepPeriod": "29년 12월" },
{"title": "영덕해파랑풍력", "type": "wind", "region": "경북", "lat": 36.4230257, "lng": 129.4089719, "address": "경상북도 영덕군 영덕읍 삼계리 산23-2 일원", "owner": "영덕해파랑풍력발전㈜", "shareholder": "㈜ST인터내셔널, ㈜하나은행", "capacity": "31.0 MW", "planPeriod": "", "prepPeriod": "29년 10월" },
{"title": "경북의성옥산풍력", "type": "wind", "region": "경북", "lat": 36.3049243, "lng": 128.8622583, "address": "경상북도 의성군 옥산면 오류리 산6-2 일원", "owner": "㈜티에스에너지24호", "shareholder": "주식회사 탑선", "capacity": "132.0 MW", "planPeriod": "", "prepPeriod": "25년 12월" },
{"title": "양양달래풍력", "type": "wind", "region": "강원", "lat": 37.9118035, "lng": 128.7136682, "address": "강원도 양양군 현남면 하월천리 산1-1 일원", "owner": "코오롱글로벌㈜", "shareholder": "0", "capacity": "20.0 MW", "planPeriod": "", "prepPeriod": "27년 3월" },
{"title": "간성풍력", "type": "wind", "region": "강원", "lat": 38.2992567, "lng": 128.3852717, "address": "강원도 고성군 간성읍 흘리 산1-89 일원", "owner": "대명에너지㈜", "shareholder": "서종현", "capacity": "50.0 MW", "planPeriod": "", "prepPeriod": "28년 1월" },
{"title": "경주영일풍력", "type": "wind", "region": "경북", "lat": 35.8199831, "lng": 129.4760444, "address": "경상북도 경주시 감포읍 전동리 산40, 산45, 산198, 호동리 산1, 산4", "owner": "㈜영일만윈드파워", "shareholder": "조용수", "capacity": "22.50 MW", "planPeriod": "", "prepPeriod": "24년 12월" },
{"title": "정선도진풍력", "type": "wind", "region": "강원", "lat": 37.5426110999999, "lng": 128.8803977, "address": "강원도 정선군 임계면 임계리", "owner": "도진풍력발전㈜", "shareholder": "최종성", "capacity": "40.0 MW", "planPeriod": "", "prepPeriod": "25년 12월" },
{"title": "삼척어리풍력", "type": "wind", "region": "강원", "lat": 37.2850453, "lng": 128.9187221, "address": "강원도 삼척시 하장면 어리", "owner": "한국동서발전㈜", "shareholder": "한전", "capacity": "49.60 MW", "planPeriod": "", "prepPeriod": "27년 4월" },
{"title": "울진기성풍력", "type": "wind", "region": "경북", "lat": 36.8210264999999, "lng": 129.4375263, "address": "경상북도 울진군 기성면 삼산리 산28, 산44, 산45, 사동리 산42, 산45", "owner": "㈜세동알앤디", "shareholder": "유인순", "capacity": "41.60 MW", "planPeriod": "", "prepPeriod": "27년 3월" },
{"title": "영천고경남부풍력", "type": "wind", "region": "경북", "lat": 35.9795828, "lng": 129.0790998, "address": "경상북도 영천시 고경면 차당리, 삼귀리, 동도리, 초일리 일원", "owner": "고경남부풍력㈜", "shareholder": "정연미", "capacity": "80.0 MW", "planPeriod": "", "prepPeriod": "26년 12월" },
{"title": "강릉산성우리풍력", "type": "wind", "region": "강원", "lat": 37.654855, "lng": 128.9943016, "address": "강원도 강릉시 강동면 입곡리 산21, 산67, 산68, 산194, 산성우리 산90 일원", "owner": "㈜동성", "shareholder": "김홍식", "capacity": "40.0 MW", "planPeriod": "", "prepPeriod": "23년 12월" },
{"title": "양양수리풍력", "type": "wind", "region": "강원", "lat": 38.0186976, "lng": 128.5856328, "address": "강원도 양양군 서면 수리 산1 일원", "owner": "양양수리풍력㈜", "shareholder": "에코그린풍력㈜", "capacity": "90.0 MW", "planPeriod": "", "prepPeriod": "24년 1월" },
{"title": "전남고흥신신풍력", "type": "wind", "region": "전남", "lat": 34.4584126, "lng": 127.3024437, "address": "전라남도 고흥군 도화면 구암리 산266번지 외 6필지", "owner": "㈜신신풍력", "shareholder": "(유)제노보, 써팩㈜", "capacity": "38.90 MW", "planPeriod": "", "prepPeriod": "26년 4월" },
{"title": "삼척어리어진풍력", "type": "wind", "region": "강원", "lat": 37.2878553, "lng": 128.9383417, "address": "강원도 삼척시 하장면 어리 산66번지 일원", "owner": "㈜어진풍력발전", "shareholder": "김재종", "capacity": "27.0 MW", "planPeriod": "", "prepPeriod": "25년 11월" },
{"title": "평창대관령차항풍력", "type": "wind", "region": "강원", "lat": 37.7277328, "lng": 128.6879478, "address": "강원도 평창군 대관령면 차항리 산1-11", "owner": "대관령차항풍력㈜", "shareholder": "정유환", "capacity": "20.0 MW", "planPeriod": "", "prepPeriod": "25년 10월" },
{"title": "평창봉진풍력", "type": "wind", "region": "강원", "lat": 37.5780796, "lng": 128.2908488, "address": "강원도 평창군 봉평면 진조리 산80-68", "owner": "서하에너지㈜", "shareholder": "에스원건설㈜", "capacity": "10.0 MW", "planPeriod": "", "prepPeriod": "25년 11월" },
{"title": "영월접산풍력", "type": "wind", "region": "강원", "lat": 37.2763896, "lng": 128.4883094, "address": "강원도 영월군 북면 마차리 산1-1, 영월읍 거운리 914-1, 산209-1", "owner": "그린에너지윈드파워㈜", "shareholder": "지앤이파트너스(유)", "capacity": "36.0 MW", "planPeriod": "", "prepPeriod": "24년 6월" },
{"title": "의성황학산풍력", "type": "wind", "region": "경북", "lat": 36.1508776, "lng": 128.4424385, "address": "경상북도 구미시 산동읍 도중리 구미하이테크밸리 4구역", "owner": "㈜구미에코발전", "shareholder": "이인문", "capacity": "99.20 MW", "planPeriod": "", "prepPeriod": "23년 7월" },
{"title": "평창횡계동진풍력", "type": "wind", "region": "강원", "lat": 37.6981013, "lng": 128.6466817, "address": "강원도 평창군 대관령명 유천리 산1", "owner": "㈜동진풍력발전", "shareholder": "김재종", "capacity": "147.0 MW", "planPeriod": "", "prepPeriod": "24년 5월" },
{"title": "영양제2풍력", "type": "wind", "region": "경북", "lat": 36.5550912, "lng": 129.2097128, "address": "경상북도 영양군 석보면 삼의리 산60번지 일원", "owner": "㈜영양제2풍력발전", "shareholder": "㈜GS이앤알", "capacity": "52.0 MW", "planPeriod": "", "prepPeriod": "23년 12월" },
{"title": "홍천율전풍력", "type": "wind", "region": "강원", "lat": 37.7917014999999, "lng": 128.3430482, "address": "강원도 홍천군 내면 율전리 산188-2, 산182, 산183, 산184, 산185", "owner": "㈜홍천율전풍력발전", "shareholder": "구영임", "capacity": "84.0 MW", "planPeriod": "", "prepPeriod": "24년 6월" },
{"title": "완도장보고해상풍력", "type": "wind", "region": "전남", "lat": 34.2409015, "lng": 127.0161197, "address": "전라남도 완도군 생일면 봉선리 산276 지선 남쪽해상", "owner": "코오롱글로벌㈜", "shareholder": "㈜코오롱", "capacity": "400.0 MW", "planPeriod": "", "prepPeriod": "25년 7월" },
{"title": "경북영덕문등산풍력", "type": "wind", "region": "경북", "lat": 36.4816293, "lng": 129.4288131, "address": "경상북도 영덕군 축산면 고곡리, 경정리, 영덕읍 석리", "owner": "㈜세연", "shareholder": "안병욱", "capacity": "45.0 MW", "planPeriod": "", "prepPeriod": "26년 1월" },
{"title": "영덕해파랑육상풍력", "type": "wind", "region": "경북", "lat": 36.4650154, "lng": 129.4167496, "address": "경상북도 영덕군 영덕읍 매정리 산54, 축산면 고곡리 산139-3, 산119-1, 산119-3번지 일원", "owner": "한국바람㈜", "shareholder": "0", "capacity": "8.40 MW", "planPeriod": "", "prepPeriod": "25년 10월" },
{"title": "영월옥동풍력", "type": "wind", "region": "강원", "lat": 37.0966759, "lng": 128.6163139, "address": "강원도 영월군 김삿갓면 옥동리, 대야리, 와석리", "owner": "한국동명발전㈜", "shareholder": "0", "capacity": "52.80 MW", "planPeriod": "", "prepPeriod": "25년 3월" },
{"title": "의성금봉풍력", "type": "wind", "region": "경북", "lat": 36.3231567, "lng": 128.8736824, "address": "경상북도 의성군 옥산면 금봉리", "owner": "지앤이윈드파워㈜", "shareholder": "0", "capacity": "18.0 MW", "planPeriod": "", "prepPeriod": "24년 9월" },
{"title": "삼척철마풍력", "type": "wind", "region": "강원", "lat": 37.2109411, "lng": 129.2351389, "address": "강원도 삼척시 원덕읍 기곡리 산170, 이천리 산322", "owner": "비에스에너지㈜", "shareholder": "0", "capacity": "71.50 MW", "planPeriod": "", "prepPeriod": "25년 5월" },
{"title": "포항고주산풍력", "type": "wind", "region": "경북", "lat": 36.1892776, "lng": 129.2855526, "address": "경상북도 포항시 북구 청하면 명안리", "owner": "가목윈드캠퍼스㈜", "shareholder": "0", "capacity": "33.0 MW", "planPeriod": "", "prepPeriod": "25년 1월" },
{"title": "영월접산풍력", "type": "wind", "region": "강원", "lat": 37.2763896, "lng": 128.4883094, "address": "강원도 영월군 북면 마차리 산1-1", "owner": "지앤이윈드파워㈜", "shareholder": "0", "capacity": "36.0 MW", "planPeriod": "", "prepPeriod": "24년 6월" },
{"title": "강원고성평화풍력2", "type": "wind", "region": "강원", "lat": 38.5159056, "lng": 128.4051587, "address": "강원도 고성군 현내면 마달리 산3번지, 5번지, 철통리 산63번지 일원", "owner": "대명에너지㈜", "shareholder": "0", "capacity": "23.0 MW", "planPeriod": "", "prepPeriod": "25년 6월" },
{"title": "삼척산양풍력", "type": "wind", "region": "강원", "lat": 37.1812072, "lng": 129.2726089, "address": "강원도 삼척시 원덕읍 산양리 산1", "owner": "지앤이윈드파워㈜", "shareholder": "0", "capacity": "40.0 MW", "planPeriod": "", "prepPeriod": "24년 6월" },
{"title": "울진신림풍력", "type": "wind", "region": "경북", "lat": 36.9924702, "lng": 129.3403467, "address": "경상북도 울진군 울진읍 신림리 산234-1번지 일원", "owner": "한국신림풍력발전㈜", "shareholder": "0", "capacity": "36.0 MW", "planPeriod": "", "prepPeriod": "25년 5월" },
{"title": "포항경주해오름풍력", "type": "wind", "region": "경북", "lat": 35.8715943, "lng": 129.4603588, "address": "경상북도 포항시 남구 장기면 산서리 산255번지, 경주시 양북면 권이리 산2,3번지 일원", "owner": "㈜더원에너지", "shareholder": "0", "capacity": "60.0 MW", "planPeriod": "", "prepPeriod": "24년 6월" },
{"title": "봉화우구치리풍력", "type": "wind", "region": "경북", "lat": 37.0660872, "lng": 128.7880978, "address": "경상북도 봉화군 춘양면 우구치리 산1-70, 산1-19", "owner": "지앤이에너지㈜", "shareholder": "0", "capacity": "40.0 MW", "planPeriod": "", "prepPeriod": "24년 12월" },
{"title": "삼척근덕풍력", "type": "wind", "region": "강원", "lat": 37.2946944, "lng": 129.2894412, "address": "강원도 삼척시 근덕면 매원리 산75, 산82, 산184, 산288", "owner": "지앤이윈드파워㈜", "shareholder": "0", "capacity": "40.0 MW", "planPeriod": "", "prepPeriod": "24년 6월" },
{"title": "포항영일풍력", "type": "wind", "region": "경북", "lat": 35.9010483, "lng": 129.3890262, "address": "경상북도 포항시 남구 오천읍 갈평리 산272번지, 진전리 산127번지 일원", "owner": "㈜영일신재생에너지", "shareholder": "0", "capacity": "90.0 MW", "planPeriod": "", "prepPeriod": "24년 12월" },
{"title": "삼척도계홍진풍력", "type": "wind", "region": "강원", "lat": 37.2395584, "lng": 129.0097223, "address": "강원도 삼척시 도계읍 점리 산182-1, 홍전리 산92-1, 전두리 산67번지", "owner": "㈜홍진풍력발전", "shareholder": "0", "capacity": "45.0 MW", "planPeriod": "", "prepPeriod": "26년 8월" },
{"title": "봉화만리산풍력", "type": "wind", "region": "경북", "lat": 36.8276407, "lng": 128.8377161, "address": "경상북도 봉화군 명호면 관창리 산60-2, 산60-3, 산166, 산170, 산175-4, 산186, 산198", "owner": "㈜티에스에너지3호", "shareholder": "0", "capacity": "84.0 MW", "planPeriod": "", "prepPeriod": "23년 12월" },
{"title": "삼척건의풍력", "type": "wind", "region": "강원", "lat": 37.2496686, "lng": 129.0177973, "address": "강원도 삼척시 도계읍 점리 산47, 산44-2, 늑구리 산242", "owner": "건의풍력발전㈜", "shareholder": "0", "capacity": "14.40 MW", "planPeriod": "", "prepPeriod": "27년 2월" },
{"title": "정선백전2풍력", "type": "wind", "region": "강원", "lat": 37.2645528, "lng": 128.8459155, "address": "강원도 정선군 백전리 산272번지 일원", "owner": "지앤이윈드파워㈜", "shareholder": "0", "capacity": "39.20 MW", "planPeriod": "", "prepPeriod": "24년 3월" },
{"title": "강릉산성우리풍력", "type": "wind", "region": "강원", "lat": 37.654855, "lng": 128.9943016, "address": "강원도 강릉시 강동면 입곡리 산21, 산67, 산68, 산194, 산성우리 산90 일원", "owner": "지앤디파워㈜", "shareholder": "0", "capacity": "40.0 MW", "planPeriod": "", "prepPeriod": "21년 12월" },
{"title": "태백원동풍력", "type": "wind", "region": "강원", "lat": 37.2770871, "lng": 128.9412555, "address": "강원도 태백시 원동 산97, 산13-1일원", "owner": "태백가덕산풍력발전㈜", "shareholder": "0", "capacity": "28.80 MW", "planPeriod": "", "prepPeriod": "23년 12월" },
{"title": "청도구룡산풍력", "type": "wind", "region": "경북", "lat": 35.7960181, "lng": 128.951328, "address": "경상북도 청도군 운문면 봉하리 산195일원", "owner": "에스케이디앤디㈜", "shareholder": "0", "capacity": "30.0 MW", "planPeriod": "", "prepPeriod": "24년 8월" },
{"title": "의성풍력", "type": "wind", "region": "경북", "lat": 36.4390788, "lng": 128.7407104, "address": "경상북도 의성군 접곡면 사촌리, 송내리 일원", "owner": "㈜티큐디에네르히아", "shareholder": "0", "capacity": "78.0 MW", "planPeriod": "", "prepPeriod": "23년 6월" },
{"title": "경주다산풍력", "type": "wind", "region": "경북", "lat": 36.0568506, "lng": 129.2795547, "address": "경상북도 경주시 강동면 다산리 산9, 산14, 산15, 산17번지", "owner": "경주강동풍력발전㈜", "shareholder": "0", "capacity": "12.60 MW", "planPeriod": "", "prepPeriod": "24년 8월" },
{"title": "정선남사풍력", "type": "wind", "region": "강원", "lat": 37.2920952, "lng": 128.8128002, "address": "강원도 정선군 화암면 몰운리 산227 일원", "owner": "지앤이윈드파워㈜", "shareholder": "0", "capacity": "20.0 MW", "planPeriod": "", "prepPeriod": "24년 3월" },
{"title": "영월구래주민풍력", "type": "wind", "region": "강원", "lat": 37.1642377, "lng": 128.7921672, "address": "강원도 영월군 상동읍 구래리 산1-35번지 일원", "owner": "구래주민풍력㈜", "shareholder": "0", "capacity": "4.20 MW", "planPeriod": "", "prepPeriod": "24년 1월" },
{"title": "해남내사리풍력", "type": "wind", "region": "전남", "lat": 34.5477184999999, "lng": 126.5028054, "address": "전라남도 해남군 해남읍 내사리 1743-1외 19필지", "owner": "㈜해남에너지솔루션", "shareholder": "0", "capacity": "84.0 MW", "planPeriod": "", "prepPeriod": "23년 2월" },
{"title": "구래주민풍력㈜", "type": "wind", "region": "강원", "lat": 37.1642377, "lng": 128.7921672, "address": "강원도 영월군 상동읍 구래리 산1-35번지 일원", "owner": "구래주민풍력㈜", "shareholder": "0", "capacity": "4.20 MW", "planPeriod": "", "prepPeriod": "24년 1월" },
{"title": "양양내현풍력", "type": "wind", "region": "강원", "lat": 37.993344, "lng": 128.591674, "address": "강원도 양양군 서면 내현리 산112-1 일원", "owner": "㈜케이그리드", "shareholder": "0", "capacity": "71.40 MW", "planPeriod": "", "prepPeriod": "24년 1월" },
{"title": "태백하사미풍력", "type": "wind", "region": "강원", "lat": 37.2915148, "lng": 128.9494186, "address": "강원도 태백시 하사미동 산219-2, 485-7, 485-9", "owner": "하사미㈜", "shareholder": "0", "capacity": "18.0 MW", "planPeriod": "", "prepPeriod": "21년 12월" },
{"title": "영월삼동산풍력", "type": "wind", "region": "강원", "lat": 37.0850801, "lng": 128.8160848, "address": "강원도 영월군 상동읍 덕구리 산10-14 일원", "owner": "지앤이에너지㈜", "shareholder": "0", "capacity": "30.40 MW", "planPeriod": "", "prepPeriod": "21년 6월" },
{"title": "만도평택공장지붕및주차장태양광", "type": "wind", "region": "경기", "lat": 36.9558772, "lng": 126.8569334, "address": "경기도 평택시 포승읍 만호리 349-5 일원", "owner": "한국서부발전㈜", "shareholder": "0", "capacity": "4.30 MW", "planPeriod": "", "prepPeriod": "23년 2월" },
{"title": "삼척구사풍력", "type": "wind", "region": "강원", "lat": 37.1704134, "lng": 129.071945, "address": "강원도 삼척시 도계읍 구사리 산53 일원", "owner": "구사풍력발전㈜", "shareholder": "0", "capacity": "19.20 MW", "planPeriod": "", "prepPeriod": "23년 3월" },
{"title": "태백통동풍력", "type": "wind", "region": "강원", "lat": 37.1625666, "lng": 129.0541093, "address": "강원도 태백시 통동 산67-1번지 일원", "owner": "메카그린에너지㈜", "shareholder": "0", "capacity": "19.20 MW", "planPeriod": "", "prepPeriod": "23년 3월" },
{"title": "태백풍력", "type": "wind", "region": "강원", "lat": 37.3467464, "lng": 128.9932009, "address": "강원도 삼척시 하장면 숙암리 산11-3번지 일원, 태백시 하사미동 524-144번지 일원", "owner": "태백풍력발전㈜", "shareholder": "0", "capacity": "16.0 MW", "planPeriod": "", "prepPeriod": "가동 중" },
{"title": "홍천와야리풍력", "type": "wind", "region": "강원", "lat": 37.8347784, "lng": 128.1644567, "address": "강원도 홍천군 내촌면 와야리 산12-1번지", "owner": "씨에스에너지㈜", "shareholder": "0", "capacity": "37.80 MW", "planPeriod": "", "prepPeriod": "22년 12월" },
{"title": "순천송광육상풍력", "type": "wind", "region": "전남", "lat": 34.9614421, "lng": 127.244389, "address": "전라남도 순천시 송광면 우산리 산127 외 5필지", "owner": "㈜송광풍력", "shareholder": "0", "capacity": "60.0 MW", "planPeriod": "", "prepPeriod": "22년 12월" },
{"title": "포항청흥풍력", "type": "wind", "region": "경북", "lat": 36.1921639, "lng": 129.3242244, "address": "경상북도 포항시 북구 청하면 일대", "owner": "㈜에스에이치파워", "shareholder": "0", "capacity": "70.0 MW", "planPeriod": "", "prepPeriod": "22년 8월" },
{"title": "해남매월풍력", "type": "wind", "region": "전남", "lat": 34.7496166, "lng": 126.2921421, "address": "전라남도 해남군 화원면 매월리 산71-2번지 일원", "owner": "㈜지에스에앤알", "shareholder": "0", "capacity": "65.0 MW", "planPeriod": "", "prepPeriod": "23년 10월" },
{"title": "강원고성평화풍력", "type": "wind", "region": "강원", "lat": 38.5159056, "lng": 128.4051587, "address": "강원도 고성군 현내면 마달리 산3, 산5, 산8, 철통리 산61, 산63, 산86번지", "owner": "고성평화풍력㈜", "shareholder": "0", "capacity": "38.40 MW", "planPeriod": "", "prepPeriod": "22년 12월" },
{"title": "정선신동풍력", "type": "wind", "region": "강원", "lat": 37.2450228, "lng": 128.6534919, "address": "강원도 정선군 신동읍 가사리 산127, 산121-1", "owner": "지앤이파워㈜", "shareholder": "0", "capacity": "22.50 MW", "planPeriod": "", "prepPeriod": "23년 7월" },
{"title": "삼척백구풍력", "type": "wind", "region": "강원", "lat": 37.2737703, "lng": 129.0457239, "address": "강원도 삼척시 도계읍 늑구리 산19-1, 산10-1", "owner": "백구풍력발전㈜", "shareholder": "0", "capacity": "24.0 MW", "planPeriod": "", "prepPeriod": "22년 9월" },
{"title": "태백가덕산풍력3단계", "type": "wind", "region": "강원", "lat": 37.3022005, "lng": 128.9467053, "address": "강원도 태백시 하사미동 산195-1, 조탄동 산55 일원", "owner": "태백가덕산풍력발전㈜", "shareholder": "0", "capacity": "36.0 MW", "planPeriod": "", "prepPeriod": "23년 5월" },
{"title": "삼척도계풍력", "type": "wind", "region": "강원", "lat": 37.2042084, "lng": 129.1339381, "address": "강원도 삼척시 도계읍 상덕리 산1-2번지, 황조리 산159번지, 신리 산138번지 일원", "owner": "비에스에너지㈜", "shareholder": "0", "capacity": "70.0 MW", "planPeriod": "", "prepPeriod": "21년 5월" },
{"title": "양구DMZ평화풍력", "type": "wind", "region": "강원", "lat": 38.2963906, "lng": 128.0902312, "address": "강원도 양구군 해안면 현리 산1번지 일원", "owner": "평화에너지㈜", "shareholder": "0", "capacity": "90.0 MW", "planPeriod": "", "prepPeriod": "21년 10월" },
{"title": "영천고경풍력", "type": "wind", "region": "경북", "lat": 36.0431087, "lng": 129.1097964, "address": "경상북도 영천시 임고면 수성리 산11-1번지 일원", "owner": "지케이윈드㈜", "shareholder": "0", "capacity": "39.0 MW", "planPeriod": "", "prepPeriod": "21년 8월" },
{"title": "정선백전풍력", "type": "wind", "region": "강원", "lat": 37.2413193, "lng": 128.8834477, "address": "강원도 정선군 화암면 백전리 81-2, 산457, 산465, 산486, 산487, 산493, 산511", "owner": "그린에너지발전㈜", "shareholder": "0", "capacity": "40.0 MW", "planPeriod": "", "prepPeriod": "22년 12월" },
{"title": "태백가덕산풍력", "type": "wind", "region": "강원", "lat": 37.2770871, "lng": 128.9412555, "address": "강원도 태백시 원동 산97, 산13-1 일원", "owner": "태백가덕산풍력발전㈜", "shareholder": "0", "capacity": "72.0 MW", "planPeriod": "", "prepPeriod": "20년 12월" },
{"title": "평창횡계에코풍력", "type": "wind", "region": "강원", "lat": 37.7099183, "lng": 128.7176602, "address": "강원도 평창군 대관령면 횡계리 산1-137, 산1-140, 산302번지", "owner": "평창에코파워㈜", "shareholder": "0", "capacity": "40.0 MW", "planPeriod": "", "prepPeriod": "21년 12월" },
{"title": "서순천풍력", "type": "wind", "region": "전남", "lat": 34.9082309, "lng": 127.3797793, "address": "전라남도 순천시 낙안면 창녕리 산113번지 외 10필지", "owner": "서순천풍력발전㈜", "shareholder": "0", "capacity": "29.70 MW", "planPeriod": "", "prepPeriod": "20년 12월" },
{"title": "정선가산풍력", "type": "wind", "region": "강원", "lat": 37.3451879, "lng": 128.6510609, "address": "강원도 정선군 정선읍 북실리 산50, 산55, 산56, 산28번지 일원", "owner": "㈜코포스", "shareholder": "0", "capacity": "30.0 MW", "planPeriod": "", "prepPeriod": "19년 12월" },
{"title": "화순모후산풍력", "type": "wind", "region": "전남", "lat": 35.0943362, "lng": 127.1811465, "address": "전라남도 화순군 동복면 유천리 산22, 신율리 산5, 기수리 산102번지 일원", "owner": "㈜동복에너지", "shareholder": "0", "capacity": "93.15 MW", "planPeriod": "", "prepPeriod": "21년 12월" },
{"title": "저구풍력발전단지", "type": "wind", "region": "경남", "lat": 34.7435984, "lng": 128.5969824, "address": "경상남도 거제시 남부면 저구리 산128-1번지 일원", "owner": "저구풍력발전㈜", "shareholder": "0", "capacity": "36.0 MW", "planPeriod": "", "prepPeriod": "21년 2월" },
{"title": "군산고군산풍력", "type": "wind", "region": "전북", "lat": 35.8476096, "lng": 126.3769575, "address": "전라북도 군산시 옥도면 관리도, 방축도, 횡경도일원", "owner": "㈜군산에코이엔지", "shareholder": "0", "capacity": "99.0 MW", "planPeriod": "", "prepPeriod": "20년 11월" },
{"title": "평창청산풍력", "type": "wind", "region": "강원", "lat": 37.5627269, "lng": 128.3065054, "address": "강원도 평창군 봉평면 진조리 산80-1, 횡성군 둔내면 삽교리 산1-3", "owner": "청산풍력발전㈜", "shareholder": "0", "capacity": "20.0 MW", "planPeriod": "", "prepPeriod": "18년 12월" },
{"title": "강릉풍력", "type": "wind", "region": "강원", "lat": 37.5819651, "lng": 128.7568297, "address": "강원도 강릉시 왕산면 대기리 산3번지 일원", "owner": "동국S&C", "shareholder": "0", "capacity": "84.0 MW", "planPeriod": "", "prepPeriod": "22년 8월" },
{"title": "김제창신풍력", "type": "wind", "region": "전북", "lat": 35.8400385, "lng": 126.7030067, "address": "전라북도 김제시 광활면 창제리 1478-12 외 12필지", "owner": "㈜창신풍력", "shareholder": "0", "capacity": "39.0 MW", "planPeriod": "", "prepPeriod": "19년 12월" },
{"title": "삼척풍곡풍력", "type": "wind", "region": "강원", "lat": 37.0945682, "lng": 129.1670415, "address": "강원도 삼척시 가곡면 풍곡리 산128-63번지", "owner": "㈜히든파워에너지", "shareholder": "0", "capacity": "99.0 MW", "planPeriod": "", "prepPeriod": "22년 7월" },
{"title": "서순천풍력", "type": "wind", "region": "전남", "lat": 34.9082309, "lng": 127.3797793, "address": "전라남도 순천시 낙안면 창녕리 산113번지 외 10필지", "owner": "서순천풍력발전㈜", "shareholder": "0", "capacity": "30.0 MW", "planPeriod": "", "prepPeriod": "20년 12월" },
{"title": "순천삼거풍력", "type": "wind", "region": "전남", "lat": 34.9717565, "lng": 127.4269003, "address": "전라남도 순천시 삼거동 산209", "owner": "에스씨에너지㈜", "shareholder": "0", "capacity": "12.60 MW", "planPeriod": "", "prepPeriod": "21년 10월" },
{"title": "영덕남부풍력", "type": "wind", "region": "경북", "lat": 36.291658, "lng": 129.318108, "address": "경상북도 영덕군 남정면 양성리 산45-1번지 일원", "owner": "㈜신영덕풍력발전", "shareholder": "0", "capacity": "99.0 MW", "planPeriod": "", "prepPeriod": "22년 4월" },
{"title": "영덕남정풍력", "type": "wind", "region": "경북", "lat": 36.3133875, "lng": 129.3632678, "address": "경상북도 영덕군 남정면 원척리 산 16-1번지 일원", "owner": "㈜영덕주민바람", "shareholder": "0", "capacity": "58.80 MW", "planPeriod": "", "prepPeriod": "21년 1월" },
{"title": "영암학송풍력", "type": "wind", "region": "전남", "lat": 34.7905567, "lng": 126.7749171, "address": "전라남도 영암군 학송리 산16, 농덕리 산46, 한대리 산45, 산53, 산55-15, 산55-3", "owner": "㈜SM영암파워", "shareholder": "0", "capacity": "42.0 MW", "planPeriod": "", "prepPeriod": "21년 12월" },
{"title": "포항호미곶풍력", "type": "wind", "region": "경북", "lat": 36.0589418, "lng": 129.5491032, "address": "경상북도 포항시 남구 호미곶면 구만리 산38", "owner": "가덕풍력㈜", "shareholder": "0", "capacity": "4.60 MW", "planPeriod": "", "prepPeriod": "19년 9월" },
{"title": "영월구룡풍력", "type": "wind", "region": "강원", "lat": 37.0887398, "lng": 128.8505156, "address": "강원도 영월군 상동읍 천평리 산26-4번지", "owner": "㈜더원에너지", "shareholder": "0", "capacity": "60.0 MW", "planPeriod": "", "prepPeriod": "20년 12월" },
{"title": "순천삼거풍력", "type": "wind", "region": "전남", "lat": 34.9717565, "lng": 127.4269003, "address": "전라남도 순천시 삼거동 산209", "owner": "에스씨에너지㈜", "shareholder": "0", "capacity": "12.60 MW", "planPeriod": "", "prepPeriod": "21년 10월" },
{"title": "영월삼동산풍력", "type": "wind", "region": "강원", "lat": 37.0850801, "lng": 128.8160848, "address": "강원도 영월군 상동읍 덕구리 산10-14 일원", "owner": "㈜동성", "shareholder": "0", "capacity": "30.40 MW", "planPeriod": "", "prepPeriod": "21년 6월" },
{"title": "제천백운풍력", "type": "wind", "region": "충북", "lat": 37.2391249, "lng": 127.9941317, "address": "충청북도 제천시 백운면 운학리 산285-1번지", "owner": "대관령풍력㈜", "shareholder": "0", "capacity": "6.90 MW", "planPeriod": "", "prepPeriod": "20년 11월" },
{"title": "무안대사리풍력", "type": "wind", "region": "전남", "lat": 35.1492768, "lng": 126.2715578, "address": "전라남도 무안군 해제면 대사리 산3번지 일원", "owner": "대사리풍력㈜", "shareholder": "0", "capacity": "14.40 MW", "planPeriod": "", "prepPeriod": "21년 10월" },
{"title": "영덕강구풍력", "type": "wind", "region": "경북", "lat": 36.407515, "lng": 129.3332887, "address": "경상북도 영덕군 강구면 상직리 산73, 산74, 산97, 산99, 산101, 산110, 산111, 산114-1, 산145-1, 산143, 산145-2", "owner": "㈜대한그린에너지", "shareholder": "0", "capacity": "46.0 MW", "planPeriod": "", "prepPeriod": "22년 2월" },
{"title": "곡성천지에너지풍력", "type": "wind", "region": "전남", "lat": 35.2095594, "lng": 127.2874483, "address": "전라남도 곡성군 죽곡면 신풍리 산5, 산1-1, 산1-3, 산69, 산21, 산22, 산23, 봉정리 산152, 산153-1, 산166, 산185, 산186, 산189, 산195", "owner": "㈜천지에너지", "shareholder": "0", "capacity": "60.0 MW", "planPeriod": "", "prepPeriod": "20년 12월" },
{"title": "영덕지품풍력", "type": "wind", "region": "경북", "lat": 36.4716245, "lng": 129.3003883, "address": "경상북도 영덕군 지품면 옥류리 산144번지", "owner": "㈜영덕지품", "shareholder": "0", "capacity": "18.0 MW", "planPeriod": "", "prepPeriod": "20년 12월" },
{"title": "신안장병도풍력", "type": "wind", "region": "전남", "lat": 34.5973868, "lng": 126.0344565, "address": "전라남도 신안군 하의면 후광3리 산50번지 일원", "owner": "㈜제이에스파워", "shareholder": "0", "capacity": "32.0 MW", "planPeriod": "", "prepPeriod": "21년 10월" },
{"title": "평창진조풍력", "type": "wind", "region": "강원", "lat": 37.59323, "lng": 128.2863284, "address": "강원도 평창군 봉평면 진조리 산80-9번지", "owner": "대관령풍력㈜", "shareholder": "0", "capacity": "16.80 MW", "planPeriod": "", "prepPeriod": "20년 11월" },
{"title": "영암태금풍력", "type": "wind", "region": "전남", "lat": 34.8101985, "lng": 126.5652357, "address": "전라남도 영암군 서호면 금강리 일원", "owner": "㈜태금풍력", "shareholder": "0", "capacity": "60.0 MW", "planPeriod": "", "prepPeriod": "20년 4월" },
{"title": "순천병풍산풍력", "type": "wind", "region": "전남", "lat": 35.0629707, "lng": 127.4336482, "address": "전라남도 순천시 월등면 계월리 산149-2, 산3-2, 산150-2", "owner": "병풍산풍력㈜", "shareholder": "0", "capacity": "45.0 MW", "planPeriod": "", "prepPeriod": "20년 7월" },
{"title": "포항오천풍력", "type": "wind", "region": "경북", "lat": 35.8824149, "lng": 129.4165328, "address": "경상북도 포항시 남구 오천읍 진전리 산31, 산27, 산6-1, 포항시 장기면 산서리 산335", "owner": "㈜케이에스파워", "shareholder": "0", "capacity": "60.0 MW", "planPeriod": "", "prepPeriod": "19년 8월" },
{"title": "정선가산풍력", "type": "wind", "region": "강원", "lat": 37.3451879, "lng": 128.6510609, "address": "강원도 정선군 정선읍 북실리 산50, 산55, 산56, 산28번지 일원", "owner": "㈜코포스", "shareholder": "0", "capacity": "30.0 MW", "planPeriod": "", "prepPeriod": "19년 12월" },
{"title": "양산윈파워풍력", "type": "wind", "region": "경남", "lat": 35.4088771, "lng": 129.0149908, "address": "경상남도 양산시 어곡동 산342-1 일원", "owner": "㈜아시아드티앤디", "shareholder": "0", "capacity": "9.50 MW", "planPeriod": "", "prepPeriod": "20년 11월" },
{"title": "부산가덕동선풍력", "type": "wind", "region": "부산", "lat": 35.0427612, "lng": 128.8405405, "address": "부산광역시 강서구 동선동 산74-2 일원", "owner": "가덕풍력㈜", "shareholder": "0", "capacity": "19.20 MW", "planPeriod": "", "prepPeriod": "20년 10월" },
{"title": "삼척도계풍력", "type": "wind", "region": "강원", "lat": 37.2042084, "lng": 129.1339381, "address": "강원도 삼척시 도계읍 상덕리 산1-2번지, 황조리 산159, 신리 산138 일원", "owner": "비에스에너지㈜", "shareholder": "0", "capacity": "42.0 MW", "planPeriod": "", "prepPeriod": "21년 5월" },
{"title": "김제삼현풍력", "type": "wind", "region": "전북", "lat": 35.8363772, "lng": 126.7228595, "address": "전라북도 김제시 광활면 창제리 1381-12번지 등", "owner": "삼현풍력㈜", "shareholder": "0", "capacity": "45.0 MW", "planPeriod": "", "prepPeriod": "20년 3월" },
{"title": "삼척어리2차풍력", "type": "wind", "region": "강원", "lat": 37.2850453, "lng": 128.9187221, "address": "강원도 삼척시 하장면 어리", "owner": "㈜명진풍력발전", "shareholder": "0", "capacity": "42.0 MW", "planPeriod": "", "prepPeriod": "20년 7월" },
{"title": "평창거문풍력", "type": "wind", "region": "강원", "lat": 37.6230804, "lng": 128.5169485, "address": "강원도 평창군 진부면 상월오개리", "owner": "㈜동성", "shareholder": "0", "capacity": "38.0 MW", "planPeriod": "", "prepPeriod": "20년 12월" },
{"title": "익산금마태양광", "type": "wind", "region": "전북", "lat": 35.9918301, "lng": 127.0604, "address": "전라북도 익산시 금마면 동고도리 산343 외 22필지", "owner": "㈜성원", "shareholder": "0", "capacity": "9.52 MW", "planPeriod": "", "prepPeriod": "19년 5월" },
{"title": "순천바랑산풍력", "type": "wind", "region": "전남", "lat": 35.0436553, "lng": 127.4060292, "address": "전라남도 순천시 승주읍 도정리 산55번지", "owner": "㈜바랑산풍력", "shareholder": "0", "capacity": "60.0 MW", "planPeriod": "", "prepPeriod": "20년 11월" },
{"title": "포항오천풍력", "type": "wind", "region": "경북", "lat": 35.8877503, "lng": 129.4453564, "address": "경상북도 포항시 남구 오천읍 진전리, 장기면 산서리", "owner": "㈜케이에스파워", "shareholder": "0", "capacity": "60.0 MW", "planPeriod": "", "prepPeriod": "19년 8월" },
{"title": "태백삼수풍력", "type": "wind", "region": "강원", "lat": 37.2377675, "lng": 128.9659613, "address": "강원도 태백시 창죽동 산1-172번지", "owner": "㈜삼수풍력발전", "shareholder": "0", "capacity": "19.25 MW", "planPeriod": "", "prepPeriod": "20년 6월" },
{"title": "원주백운산풍력", "type": "wind", "region": "강원", "lat": 37.2791174, "lng": 127.9714414, "address": "강원도 원주시 판부면 신촌리, 금대리", "owner": "명성파워그린㈜", "shareholder": "0", "capacity": "39.0 MW", "planPeriod": "", "prepPeriod": "20년 6월" },
{"title": "평창유천풍력", "type": "wind", "region": "강원", "lat": 37.6272812, "lng": 128.7039204, "address": "강원도 평창군 대관령면 유천리, 수하리, 진부면 호명리", "owner": "태환윈드파워㈜", "shareholder": "0", "capacity": "66.0 MW", "planPeriod": "", "prepPeriod": "21년 1월" },
{"title": "태백금봉풍력", "type": "wind", "region": "강원", "lat": 37.1990314, "lng": 128.9464211, "address": "강원도 태백시 창죽동, 화전동", "owner": "그린에너지발전㈜", "shareholder": "0", "capacity": "37.40 MW", "planPeriod": "", "prepPeriod": "19년 9월" },
{"title": "감포파인드그린풍력", "type": "wind", "region": "경북", "lat": 35.8332453, "lng": 129.4883437, "address": "경상북도 경주시 감포읍 오류리", "owner": "파인드그린㈜", "shareholder": "0", "capacity": "92.40 MW", "planPeriod": "", "prepPeriod": "20년 2월" },
{"title": "부산가덕대항풍력", "type": "wind", "region": "부산", "lat": 35.010845, "lng": 128.8295707, "address": "부산광역시 강서구 대항동 산13-2번지 일대", "owner": "가덕대항주민바람㈜", "shareholder": "0", "capacity": "19.20 MW", "planPeriod": "", "prepPeriod": "19년 9월" },
{"title": "홍천율전풍력", "type": "wind", "region": "강원", "lat": 37.7917014999999, "lng": 128.3430482, "address": "강원도 홍천군 내면 율전리", "owner": "㈜홍천율전풍력발전", "shareholder": "0", "capacity": "84.0 MW", "planPeriod": "", "prepPeriod": "20년 6월" },
{"title": "김제창신풍력", "type": "wind", "region": "전북", "lat": 35.8363772, "lng": 126.7228595, "address": "전라북도 김제시 광활면 창제리 1381-12번지 등", "owner": "창신풍력㈜", "shareholder": "0", "capacity": "39.0 MW", "planPeriod": "", "prepPeriod": "19년 12월" },
{"title": "정선그린풍력", "type": "wind", "region": "강원", "lat": 37.5426110999999, "lng": 128.8803977, "address": "강원도 정선군 임계면 임계리", "owner": "씨스포빌㈜", "shareholder": "0", "capacity": "30.0 MW", "planPeriod": "", "prepPeriod": "21년 6월" },
{"title": "삼척사금산풍력", "type": "wind", "region": "강원", "lat": 37.1759943, "lng": 129.1803266, "address": "강원도 삼척시 가곡면 오목리", "owner": "명성파워그린㈜", "shareholder": "0", "capacity": "39.0 MW", "planPeriod": "", "prepPeriod": "21년 6월" },
{"title": "곡성그린풍력", "type": "wind", "region": "전남", "lat": 35.2316886, "lng": 127.3410999, "address": "전라남도 곡성군 오곡면 침곡리 산39, 송정리 산96 일원", "owner": "대명에너지㈜", "shareholder": "0", "capacity": "42.0 MW", "planPeriod": "", "prepPeriod": "21년 7월" },
{"title": "청도금천풍력", "type": "wind", "region": "경북", "lat": 35.7430667, "lng": 128.9027549, "address": "경상북도 청도군 금천면 소천리 일원", "owner": "청도브리즈㈜", "shareholder": "0", "capacity": "10.80 MW", "planPeriod": "", "prepPeriod": "21년 8월" },
{"title": "의성황학산풍력", "type": "wind", "region": "경북", "lat": 36.3552825, "lng": 128.8165801, "address": "경상북도 의성군 옥산면 감계리 산27번지 일원", "owner": "에스케이디앤디㈜", "shareholder": "0", "capacity": "72.0 MW", "planPeriod": "", "prepPeriod": "21년 7월" },
{"title": "고성하일풍력", "type": "wind", "region": "경남", "lat": 34.9333772, "lng": 128.1749216, "address": "경상남도 고성군 하일면 학림리, 수양리, 오방리 일원", "owner": "지에스이피에스㈜", "shareholder": "0", "capacity": "82.50 MW", "planPeriod": "", "prepPeriod": "21년 4월" },
{"title": "삼척상덕풍력", "type": "wind", "region": "강원", "lat": 37.1769083, "lng": 129.0761, "address": "강원도 삼척시 도계읍 상덕리, 구사리, 심포리", "owner": "코오롱글로벌㈜", "shareholder": "0", "capacity": "39.60 MW", "planPeriod": "", "prepPeriod": "20년 12월" },
{"title": "단양풍력", "type": "wind", "region": "충북", "lat": 37.0795391, "lng": 128.4112922, "address": "충청북도 단양군 영춘면 장발리", "owner": "㈜청송에너지", "shareholder": "0", "capacity": "45.60 MW", "planPeriod": "", "prepPeriod": "21년 5월" },
{"title": "영덕호지마을풍력", "type": "wind", "region": "경북", "lat": 36.5356678, "lng": 129.4299007, "address": "경상북도 영덕군 영해면 괴시리 산66-1 일원", "owner": "㈜해파랑에너지", "shareholder": "0", "capacity": "16.80 MW", "planPeriod": "", "prepPeriod": "21년 9월" },
{"title": "평창횡계동진풍력", "type": "wind", "region": "강원", "lat": 37.6675431, "lng": 128.6316792, "address": "강원도 평창군 대관령면 유천리", "owner": "㈜동진풍력발전", "shareholder": "0", "capacity": "147.0 MW", "planPeriod": "", "prepPeriod": "19년 5월" },
{"title": "포항스마일풍력", "type": "wind", "region": "경북", "lat": 36.201303, "lng": 129.2407827, "address": "경상북도 포항시 북구 죽장면 상옥리, 기북면 성법리, 신광면 마북리", "owner": "한국동서발전㈜", "shareholder": "0", "capacity": "63.0 MW", "planPeriod": "", "prepPeriod": "19년 12월" },
{"title": "청송부남풍력", "type": "wind", "region": "경북", "lat": 36.2593088, "lng": 129.1758173, "address": "경상북도 청송군 부남면 중기리", "owner": "우람발전㈜", "shareholder": "0", "capacity": "42.0 MW", "planPeriod": "", "prepPeriod": "20년 6월" },
{"title": "보령풍력", "type": "wind", "region": "충남", "lat": 36.3180116, "lng": 126.5258355, "address": "충청남도 보령시 신흑동", "owner": "보령풍력발전㈜", "shareholder": "0", "capacity": "19.80 MW", "planPeriod": "", "prepPeriod": "19년 10월" },
{"title": "평창노동풍력", "type": "wind", "region": "강원", "lat": 37.6987648, "lng": 128.4692574, "address": "강원도 평창군 용평면 노동리", "owner": "대관령풍력㈜", "shareholder": "0", "capacity": "4.20 MW", "planPeriod": "", "prepPeriod": "19년 10월" },
{"title": "양구바람의풍력", "type": "wind", "region": "강원", "lat": 38.3037871, "lng": 128.1595946, "address": "강원도 양구군 해안면 만대리, 월산리, 이현리, 후리 일원", "owner": "㈜글로벌윈드에너지", "shareholder": "0", "capacity": "126.0 MW", "planPeriod": "", "prepPeriod": "21년 4월" },
{"title": "양산대리풍력", "type": "wind", "region": "경남", "lat": 35.4289051, "lng": 128.995829, "address": "경상남도 양산시 원동면 대리 1039-3번지", "owner": "㈜원프랜트", "shareholder": "0", "capacity": "6.0 MW", "planPeriod": "", "prepPeriod": "21년 5월" },
{"title": "봉화풍력", "type": "wind", "region": "경북", "lat": 37.0060873, "lng": 128.9653695, "address": "경상북도 봉화군 소천면 고선리 산1", "owner": "우람에너지㈜", "shareholder": "0", "capacity": "45.0 MW", "planPeriod": "", "prepPeriod": "20년 1월" },
{"title": "무안해제풍력", "type": "wind", "region": "전남", "lat": 35.1208945, "lng": 126.2474349, "address": "전라남도 무안군 해제면 석룡리 산51-8", "owner": "해제풍력㈜", "shareholder": "0", "capacity": "21.60 MW", "planPeriod": "", "prepPeriod": "21년 3월" },
{"title": "삼척한마음풍력", "type": "wind", "region": "강원", "lat": 37.3910274, "lng": 128.9927715, "address": "강원도 삼척시 하장면 번천리", "owner": "㈜한마음에너지", "shareholder": "0", "capacity": "26.40 MW", "planPeriod": "", "prepPeriod": "21년 4월" },
{"title": "삼척오두2풍력", "type": "wind", "region": "강원", "lat": 37.3048791999999, "lng": 128.9205719, "address": "강원도 삼척시 하장면 추동리, 둔전리, 용연리 일대", "owner": "㈜글로벌윈드에너지", "shareholder": "0", "capacity": "57.60 MW", "planPeriod": "", "prepPeriod": "19년 12월" },
{"title": "삼척가풍풍력", "type": "wind", "region": "강원", "lat": 37.0945682, "lng": 129.1670415, "address": "강원도 삼척시 가곡면 풍곡리", "owner": "한국남부발전㈜", "shareholder": "0", "capacity": "50.40 MW", "planPeriod": "", "prepPeriod": "20년 12월" },
{"title": "영덕해맞이풍력", "type": "wind", "region": "경북", "lat": 36.4183036, "lng": 129.4218968, "address": "경상북도 영덕군 영덕읍 삼계리, 창포리, 강구면 하저리", "owner": "한국동서발전㈜", "shareholder": "0", "capacity": "39.60 MW", "planPeriod": "", "prepPeriod": "20년 12월" },
{"title": "영월에코에너지풍력", "type": "wind", "region": "강원", "lat": 37.1231203, "lng": 128.7775615, "address": "강원도 영월군 상동읍 내덕리, 덕구리", "owner": "영월에코에너지㈜", "shareholder": "0", "capacity": "64.80 MW", "planPeriod": "", "prepPeriod": "20년 5월" },
{"title": "봉화오미산풍력", "type": "wind", "region": "경북", "lat": 37.0131266, "lng": 129.070935, "address": "경상북도 봉화군 석포면 석포리, 승부리, 울진군 금강송면 전곡리", "owner": "유니슨㈜", "shareholder": "0", "capacity": "60.0 MW", "planPeriod": "", "prepPeriod": "21년 4월" },
{"title": "양구통일전망대풍력", "type": "wind", "region": "강원", "lat": 38.2736203, "lng": 128.106088, "address": "강원도 양구군 해안면 오유리", "owner": "㈜글로벌윈드에너지", "shareholder": "0", "capacity": "90.0 MW", "planPeriod": "", "prepPeriod": "19년 12월" },
{"title": "강릉안반덕풍력", "type": "wind", "region": "강원", "lat": 37.5819651, "lng": 128.7568297, "address": "강원도 강릉시 왕산면 대기리", "owner": "후츠파개발㈜", "shareholder": "0", "capacity": "20.0 MW", "planPeriod": "", "prepPeriod": "19년 11월" },
{"title": "통영소초풍력", "type": "wind", "region": "경남", "lat": 34.6358629, "lng": 128.2660741, "address": "경상남도 통영시 욕지면 동항리 산6-1번지 앞 공유수면", "owner": "영동발전㈜", "shareholder": "0", "capacity": "9.90 MW", "planPeriod": "", "prepPeriod": "18년 12월" },
{"title": "삼척철마풍력", "type": "wind", "region": "강원", "lat": 37.1568947, "lng": 129.24798, "address": "강원도 삼척시 원덕읍 기곡리", "owner": "비에스에너지㈜", "shareholder": "0", "capacity": "50.40 MW", "planPeriod": "", "prepPeriod": "20년 12월" },
{"title": "강릉기마봉풍력", "type": "wind", "region": "강원", "lat": 37.6631657, "lng": 129.0034883, "address": "강원도 강릉시 옥계면 금진리, 강동면 산성우리", "owner": "㈜윈드앤썬", "shareholder": "0", "capacity": "19.20 MW", "planPeriod": "", "prepPeriod": "20년 12월" },
{"title": "정선타임캡슐풍력", "type": "wind", "region": "강원", "lat": 37.2208504, "lng": 128.7094522, "address": "강원도 정선군 신동읍 방제리, 조동리", "owner": "정선풍력발전㈜", "shareholder": "0", "capacity": "19.80 MW", "planPeriod": "", "prepPeriod": "19년 10월" },
{"title": "보령풍력", "type": "wind", "region": "충남", "lat": 36.2965424, "lng": 126.5325902, "address": "충청남도 보령시 신흑동 2122-2번지 일원", "owner": "보령풍력발전㈜", "shareholder": "0", "capacity": "33.0 MW", "planPeriod": "", "prepPeriod": "19년 10월" },
{"title": "삼척한소풍력", "type": "wind", "region": "강원", "lat": 37.2426929, "lng": 128.9189702, "address": "강원도 삼척시 하장면 한소리 산60", "owner": "하장풍력발전㈜", "shareholder": "0", "capacity": "4.60 MW", "planPeriod": "", "prepPeriod": "19년 12월" },
{"title": "영월매봉풍력", "type": "wind", "region": "강원", "lat": 37.1778476, "lng": 128.7549387, "address": "강원도 영월군 중동면 직동리", "owner": "명성파워그린㈜", "shareholder": "0", "capacity": "39.0 MW", "planPeriod": "", "prepPeriod": "20년 6월" },
{"title": "신안마진도풍력", "type": "wind", "region": "전남", "lat": 34.6358424, "lng": 126.1788592, "address": "전라남도 신안군 장산면 마진도리, 팽진리", "owner": "지에스이피에스㈜", "shareholder": "0", "capacity": "29.70 MW", "planPeriod": "", "prepPeriod": "20년 10월" },
{"title": "포항에코랜드풍력", "type": "wind", "region": "경북", "lat": 36.1719985, "lng": 129.2353883, "address": "경상북도 포항시 북구 신광면 기일리", "owner": "포항에코랜드㈜", "shareholder": "0", "capacity": "96.60 MW", "planPeriod": "", "prepPeriod": "19년 8월" },
{"title": "포항비학풍력", "type": "wind", "region": "경북", "lat": 36.1516598, "lng": 129.2065282, "address": "경상북도 포항시 북구 기북면 탑정리", "owner": "비학윈드캠퍼스㈜", "shareholder": "0", "capacity": "90.0 MW", "planPeriod": "", "prepPeriod": "19년 8월" },
{"title": "포항대송풍력", "type": "wind", "region": "경북", "lat": 35.9176414999999, "lng": 129.3465748, "address": "경상북도 포항시 남구 대송면 산여리", "owner": "㈜더윈드파워", "shareholder": "0", "capacity": "60.0 MW", "planPeriod": "", "prepPeriod": "19년 12월" },
{"title": "정선남산풍력", "type": "wind", "region": "강원", "lat": 37.4625383, "lng": 128.6916818, "address": "강원도 정선군 북평면 장열리", "owner": "명성파워그린㈜", "shareholder": "0", "capacity": "39.0 MW", "planPeriod": "", "prepPeriod": "20년 6월" },
{"title": "영동상촌풍력", "type": "wind", "region": "충북", "lat": 36.089681, "lng": 127.8526273, "address": "충청북도 영동군 상촌면 둔전리, 물한리", "owner": "㈜에너지파크", "shareholder": "0", "capacity": "27.0 MW", "planPeriod": "", "prepPeriod": "19년 12월" },
{"title": "포항발산풍력", "type": "wind", "region": "경북", "lat": 36.0370349, "lng": 129.5247758, "address": "경상북도 포항시 남구 동해면 발산리", "owner": "코리아풍력㈜", "shareholder": "0", "capacity": "4.20 MW", "planPeriod": "", "prepPeriod": "18년 12월" },
{"title": "평창올림픽풍력", "type": "wind", "region": "강원", "lat": 37.7099183, "lng": 128.7176602, "address": "강원도 평창군 대관령면 횡계리", "owner": "진고개윈드캠퍼스㈜", "shareholder": "0", "capacity": "6.60 MW", "planPeriod": "", "prepPeriod": "19년 8월" },
{"title": "영암삼호풍력", "type": "wind", "region": "전남", "lat": 34.6827926, "lng": 126.5323544, "address": "전라남도 영암군 미암면 호포리", "owner": "영암삼호풍력발전㈜", "shareholder": "0", "capacity": "39.60 MW", "planPeriod": "", "prepPeriod": "19년 1월" },
{"title": "청송부남풍력", "type": "wind", "region": "경북", "lat": 36.2769942, "lng": 129.1290218, "address": "경상북도 청송군 부남면 중기리, 양숙리", "owner": "우람발전㈜", "shareholder": "0", "capacity": "99.0 MW", "planPeriod": "", "prepPeriod": "20년 6월" },
{"title": "양양봉이풍력", "type": "wind", "region": "강원", "lat": 37.9215961, "lng": 128.5470835, "address": "강원도 양양군 서면 미천리", "owner": "㈜봉이", "shareholder": "0", "capacity": "39.0 MW", "planPeriod": "", "prepPeriod": "18년 8월" },
{"title": "태백덕항산풍력", "type": "wind", "region": "강원", "lat": 37.2837863, "lng": 129.0195992, "address": "강원도 삼척시 도계읍 한내리", "owner": "진성파워㈜", "shareholder": "0", "capacity": "60.0 MW", "planPeriod": "", "prepPeriod": "18년 12월" },
{"title": "정선지억풍력", "type": "wind", "region": "강원", "lat": 37.309684, "lng": 128.8043904, "address": "강원도 정선군 남면 유평리, 화암면 몰운리", "owner": "명성파워그린㈜", "shareholder": "0", "capacity": "39.0 MW", "planPeriod": "", "prepPeriod": "19년 6월" },
{"title": "여수에스더블유에너지풍력", "type": "wind", "region": "전남", "lat": 34.6586229, "lng": 127.6203692, "address": "전라남도 여수시 화양면 안포리", "owner": "에스더블유에너지㈜", "shareholder": "0", "capacity": "9.20 MW", "planPeriod": "", "prepPeriod": "19년 9월" },
{"title": "고성영동1호풍력", "type": "wind", "region": "강원", "lat": 38.208053, "lng": 128.4796225, "address": "강원도 고성군 토성면 원암리", "owner": "영동연료전지발전㈜", "shareholder": "0", "capacity": "5.0 MW", "planPeriod": "", "prepPeriod": "17년 12월" },
{"title": "정선영동3호풍력", "type": "wind", "region": "강원", "lat": 37.4984482, "lng": 128.9566388, "address": "강원도 정선군 임계면 가목리", "owner": "영동연료전지발전㈜", "shareholder": "0", "capacity": "5.0 MW", "planPeriod": "", "prepPeriod": "17년 12월" },
{"title": "정선임계풍력", "type": "wind", "region": "강원", "lat": 37.4146192, "lng": 128.8668205, "address": "강원도 삼척시 하장면 중봉리, 갈전리, 정선군 임계면 용산리, 도전리, 문래리, 낙천리 일원", "owner": "한국동서발전㈜", "shareholder": "0", "capacity": "99.0 MW", "planPeriod": "", "prepPeriod": "20년 2월" },
{"title": "청송에코윈드풍력", "type": "wind", "region": "경북", "lat": 36.2958693, "lng": 129.1314103, "address": "경상북도 청송군 안덕면, 부남면, 현동면, 파천면, 부동면", "owner": "청송에코윈드㈜", "shareholder": "0", "capacity": "97.20 MW", "planPeriod": "", "prepPeriod": "20년 5월" },
{"title": "정선사북풍력", "type": "wind", "region": "강원", "lat": 37.2220583, "lng": 128.8218722, "address": "강원도 정선군 사북읍 사북리", "owner": "㈜웅진풍력발전", "shareholder": "0", "capacity": "60.0 MW", "planPeriod": "", "prepPeriod": "18년 6월" },
{"title": "영월에코윈드풍력", "type": "wind", "region": "강원", "lat": 37.1516128, "lng": 128.8448938, "address": "강원도 영월군 상동읍 구래리", "owner": "영월에코윈드㈜", "shareholder": "0", "capacity": "79.20 MW", "planPeriod": "", "prepPeriod": "19년 12월" },
{"title": "삼척하장3풍력", "type": "wind", "region": "강원", "lat": 37.2625905, "lng": 128.9111959, "address": "강원도 삼척시 하장면 판문리", "owner": "주원에너지㈜", "shareholder": "0", "capacity": "3.30 MW", "planPeriod": "", "prepPeriod": "18년 12월" },
{"title": "영덕영해풍력", "type": "wind", "region": "경북", "lat": 36.5551701, "lng": 129.4318122, "address": "경상북도 영덕군 영해면 대진리", "owner": "㈜윈이엔에스", "shareholder": "0", "capacity": "13.0 MW", "planPeriod": "", "prepPeriod": "18년 7월" },
{"title": "여수백야풍력", "type": "wind", "region": "전남", "lat": 34.6154129, "lng": 127.637848, "address": "전라남도 여수시 화정면 백야리", "owner": "에스알피㈜", "shareholder": "0", "capacity": "19.80 MW", "planPeriod": "", "prepPeriod": "19년 3월" },
{"title": "태백귀네미풍력", "type": "wind", "region": "강원", "lat": 37.3088765, "lng": 128.9836366, "address": "강원도 태백시 하사미동", "owner": "태백귀네미풍력발전㈜", "shareholder": "0", "capacity": "20.0 MW", "planPeriod": "", "prepPeriod": "17년 6월" },
{"title": "양양만월산풍력", "type": "wind", "region": "강원", "lat": 37.9150694, "lng": 128.7159285, "address": "강원도 양양군 현남면 하월천리", "owner": "양양풍력발전㈜", "shareholder": "0", "capacity": "40.0 MW", "planPeriod": "", "prepPeriod": "19년 2월" },
{"title": "삼척천봉풍력", "type": "wind", "region": "강원", "lat": 37.2775154, "lng": 129.247268, "address": "강원도 삼척시 근덕면 궁촌리", "owner": "삼척풍력발전㈜", "shareholder": "0", "capacity": "138.60 MW", "planPeriod": "", "prepPeriod": "18년 12월" },
{"title": "평창백석산풍력", "type": "wind", "region": "강원", "lat": 37.4154258, "lng": 128.4818807, "address": "강원도 평창군 진부면 마평리, 화의리, 막동리, 장전리, 대화면 신리, 대화리, 하안미리, 평창읍 지동리, 미탄면 화동리", "owner": "태환윈드파워평창㈜", "shareholder": "0", "capacity": "168.30 MW", "planPeriod": "", "prepPeriod": "19년 6월" },
{"title": "평창홍정풍력", "type": "wind", "region": "강원", "lat": 37.6560727, "lng": 128.3175216, "address": "강원도 평창군 봉평면 흥정리, 덕거리, 용평면 노동리", "owner": "태환윈드파워평창㈜", "shareholder": "0", "capacity": "92.40 MW", "planPeriod": "", "prepPeriod": "19년 1월" },
{"title": "양양에너지플랜풍력", "type": "wind", "region": "강원", "lat": 37.9683281, "lng": 128.5327194, "address": "강원도 양양군 서면 영덕리, 공수전리, 서림리, 북암리", "owner": "지에스이피에스㈜", "shareholder": "0", "capacity": "60.0 MW", "planPeriod": "", "prepPeriod": "19년 2월" },
{"title": "강원고성간성풍력", "type": "wind", "region": "강원", "lat": 38.3370488, "lng": 128.3643564, "address": "강원도 고성군 간성읍 탑동리, 장신리, 어천리", "owner": "유니슨㈜", "shareholder": "0", "capacity": "20.70 MW", "planPeriod": "", "prepPeriod": "20년 6월" },
{"title": "인제명당산풍력", "type": "wind", "region": "강원", "lat": 38.1323492, "lng": 128.2292072, "address": "강원도 인제군 서흥리, 원통리, 월학리", "owner": "유니슨㈜", "shareholder": "0", "capacity": "32.20 MW", "planPeriod": "", "prepPeriod": "20년 5월" },
{"title": "양양수리풍력", "type": "wind", "region": "강원", "lat": 37.9495139, "lng": 128.6086358, "address": "강원도 양양군 서면 수리, 내현리, 현북면 장리, 면옥치리", "owner": "에코그린풍력㈜", "shareholder": "0", "capacity": "90.0 MW", "planPeriod": "", "prepPeriod": "20년 1월" },
{"title": "삼척오두풍력", "type": "wind", "region": "강원", "lat": 37.2961458, "lng": 128.8362187, "address": "강원도 정선군 화암면 건천리, 호촌리, 백전리, 삼척시 하장면 토산리, 갈전리, 추동리, 둔전리, 역둔리, 공전리 일원", "owner": "한국동서발전㈜", "shareholder": "0", "capacity": "99.0 MW", "planPeriod": "", "prepPeriod": "19년 12월" },
{"title": "영덕제이풍력", "type": "wind", "region": "경북", "lat": 36.3815934, "lng": 129.2667414, "address": "경상북도 영덕군 달산면 매일리 산131번지 일원", "owner": "㈜일출에너지", "shareholder": "0", "capacity": "93.15 MW", "planPeriod": "", "prepPeriod": "20년 3월" },
{"title": "포산풍력", "type": "wind", "region": "경북", "lat": 36.5078438, "lng": 129.212524, "address": "경상북도 영양군 석보면 포산리 일원", "owner": "㈜지에스이앤알", "shareholder": "0", "capacity": "56.10 MW", "planPeriod": "", "prepPeriod": "19년 12월" },
{"title": "강릉산성우리풍력", "type": "wind", "region": "강원", "lat": 37.6885416, "lng": 128.9921309, "address": "강원도 강릉시 강동면 임곡리 산21 일원", "owner": "㈜동성", "shareholder": "0", "capacity": "47.20 MW", "planPeriod": "", "prepPeriod": "19년 12월" },
{"title": "정선웅진풍력", "type": "wind", "region": "강원", "lat": 37.1908676, "lng": 128.8441946, "address": "강원도 정선군 고한읍 고한리 산1-17번지 일원", "owner": "㈜웅진풍력발전", "shareholder": "0", "capacity": "39.0 MW", "planPeriod": "", "prepPeriod": "18년 5월" },
{"title": "영광두우리풍력", "type": "wind", "region": "전남", "lat": 35.2105394, "lng": 126.3037159, "address": "전라남도 영광군 염산면 두우리 1128-3번지 등 및 공유수면 일원", "owner": "㈜재원에너지", "shareholder": "0", "capacity": "99.10 MW", "planPeriod": "", "prepPeriod": "18년 12월" },
{"title": "대관령제1풍력", "type": "wind", "region": "강원", "lat": 37.7099183, "lng": 128.7176602, "address": "강원도 평창군 횡계리 산 1-174", "owner": "강원도청", "shareholder": "0", "capacity": "3.30 MW", "planPeriod": "", "prepPeriod": "16년 12월" },
{"title": "여수화정풍력", "type": "wind", "region": "전남", "lat": 34.6351695, "lng": 127.5595988, "address": "전라남도 여수시 화정면 조발리 산38-3번지 일원", "owner": "에스비오㈜", "shareholder": "0", "capacity": "12.0 MW", "planPeriod": "", "prepPeriod": "19년 4월" },
{"title": "신안증도풍력", "type": "wind", "region": "전남", "lat": 34.9597018, "lng": 126.1369567, "address": "전라남도 신안군 증도면 우전리 일원", "owner": "㈜윈윈드파워", "shareholder": "0", "capacity": "33.0 MW", "planPeriod": "", "prepPeriod": "20년 10월" },
{"title": "영덕동대풍력", "type": "wind", "region": "경북", "lat": 36.3211473, "lng": 129.3066642, "address": "경상북도 영덕군 남정면 회리 104-1번지, 쟁암리 산37번지, 사암리 산62-2번지, 달산면 옥산리 산109번지", "owner": "㈜오성이앤티", "shareholder": "0", "capacity": "60.0 MW", "planPeriod": "", "prepPeriod": "19년 2월" },
{"title": "영천풍력", "type": "wind", "region": "경북", "lat": 36.1412559, "lng": 128.9874109, "address": "경상북도 영천시 화북면 정각리", "owner": "㈜영천풍력", "shareholder": "0", "capacity": "39.0 MW", "planPeriod": "", "prepPeriod": "19년 1월" },
{"title": "태백하사미풍력", "type": "wind", "region": "강원", "lat": 37.3088765, "lng": 128.9836366, "address": "강원도 태백시 하사미동", "owner": "하사미㈜", "shareholder": "0", "capacity": "18.0 MW", "planPeriod": "", "prepPeriod": "17년 12월" },
{"title": "경주강동풍력", "type": "wind", "region": "경북", "lat": 35.9486975, "lng": 129.2981627, "address": "경상북도 경주시 강동면 왕신리", "owner": "경주산업단지풍력발전㈜", "shareholder": "0", "capacity": "7.05 MW", "planPeriod": "", "prepPeriod": "17년 12월" },
{"title": "평창노동풍력", "type": "wind", "region": "강원", "lat": 37.6987648, "lng": 128.4692574, "address": "강원도 평창군 용평면 노동리", "owner": "대관령풍력㈜", "shareholder": "0", "capacity": "3.40 MW", "planPeriod": "", "prepPeriod": "18년 12월" },
{"title": "정선벌문재풍력", "type": "wind", "region": "강원", "lat": 37.3241406, "lng": 128.8510889, "address": "강원도 정선군 화암면 화암리, 건천리, 임계면 덕암리", "owner": "한국동서발전㈜", "shareholder": "0", "capacity": "40.0 MW", "planPeriod": "", "prepPeriod": "19년 12월" },
{"title": "평창대화풍력", "type": "wind", "region": "강원", "lat": 37.4705684, "lng": 128.3045028, "address": "강원도 평창군 대화면 개수리, 상암미리, 방림면 방림리, 계촌리", "owner": "대화풍력㈜", "shareholder": "0", "capacity": "99.0 MW", "planPeriod": "", "prepPeriod": "19년 12월" },
{"title": "울진풍력", "type": "wind", "region": "경북", "lat": 36.8189121, "lng": 129.3227015, "address": "경상북도 울진군 매화면 길곡리", "owner": "㈜부선", "shareholder": "0", "capacity": "99.20 MW", "planPeriod": "", "prepPeriod": "20년 1월" },
{"title": "평창도사리풍력", "type": "wind", "region": "강원", "lat": 37.6403697999999, "lng": 128.4413027, "address": "강원도 평창군 용평면 도사리, 덕거리, 속사리", "owner": "㈜태환윈드파워", "shareholder": "0", "capacity": "85.80 MW", "planPeriod": "", "prepPeriod": "19년 1월" },
{"title": "여수백야풍력", "type": "wind", "region": "전남", "lat": 34.6154129, "lng": 127.637848, "address": "전라남도 여수시 화정면 백야리", "owner": "에스알피㈜", "shareholder": "0", "capacity": "12.0 MW", "planPeriod": "", "prepPeriod": "19년 3월" },
{"title": "영천용산풍력", "type": "wind", "region": "경북", "lat": 36.1184103, "lng": 129.0282793, "address": "경상북도 영천시 자양면 용산리 산31번지 일원", "owner": "와이씨풍력㈜", "shareholder": "0", "capacity": "12.0 MW", "planPeriod": "", "prepPeriod": "18년 12월" },
{"title": "삼척풍력", "type": "wind", "region": "강원", "lat": 37.4090592, "lng": 128.9415545, "address": "강원도 삼척시 하장면 중봉리, 도계읍 무건리, 황조리, 신리, 노곡면 주지리, 상마읍리, 원덕읍 이천리, 가곡면 오목리", "owner": "㈜에너지메카", "shareholder": "0", "capacity": "285.0 MW", "planPeriod": "", "prepPeriod": "19년 8월" },
{"title": "포항스마일풍력", "type": "wind", "region": "경북", "lat": 36.201303, "lng": 129.2407827, "address": "경상북도 포항시 북구 죽장면 상옥리, 기북면 성법리, 신광면 마북리", "owner": "한국동서발전㈜", "shareholder": "0", "capacity": "30.0 MW", "planPeriod": "", "prepPeriod": "19년 12월" },
{"title": "평창운두령풍력", "type": "wind", "region": "강원", "lat": 37.6987648, "lng": 128.4692574, "address": "강원도 평창군 용평면 노동리", "owner": "㈜하누리파워", "shareholder": "0", "capacity": "27.60 MW", "planPeriod": "", "prepPeriod": "18년 1월" },
{"title": "고흥도경풍력", "type": "wind", "region": "전남", "lat": 34.794267, "lng": 127.3152878, "address": "전라남도 고흥군 동강면 대강리", "owner": "㈜도경풍력발전", "shareholder": "0", "capacity": "51.0 MW", "planPeriod": "", "prepPeriod": "18년 3월" },
{"title": "영덕제일풍력", "type": "wind", "region": "경북", "lat": 36.3583332, "lng": 129.3345465, "address": "경상북도 영덕군 남정면 중화리", "owner": "㈜지에스이앤알", "shareholder": "0", "capacity": "92.40 MW", "planPeriod": "", "prepPeriod": "19년 12월" },
{"title": "포항죽장풍력", "type": "wind", "region": "경북", "lat": 36.2213368, "lng": 129.1352811, "address": "경상북도 포항시 북구 죽장면 가사리, 석계리", "owner": "에스케이디앤디㈜", "shareholder": "0", "capacity": "72.0 MW", "planPeriod": "", "prepPeriod": "19년 10월" },
{"title": "삼척육백산풍력", "type": "wind", "region": "강원", "lat": 37.2267438, "lng": 129.1032727, "address": "강원도 삼척시 도계읍 황조리 산159임 일원", "owner": "한국남부발전㈜", "shareholder": "0", "capacity": "30.0 MW", "planPeriod": "", "prepPeriod": "18년 6월" },
{"title": "삼척어리어진풍력", "type": "wind", "region": "강원", "lat": 37.2878553, "lng": 128.9383417, "address": "강원도 삼척시 하장면 어리 산66번지 일원", "owner": "㈜어진풍력발전", "shareholder": "0", "capacity": "27.0 MW", "planPeriod": "", "prepPeriod": "17년 12월" },
{"title": "태백금대에코풍력", "type": "wind", "region": "강원", "lat": 37.1712746, "lng": 128.9669333, "address": "강원도 태백시 황지동 일원", "owner": "㈜오투파워", "shareholder": "0", "capacity": "165.0 MW", "planPeriod": "", "prepPeriod": "19년 2월" },
{"title": "고창동촌풍력", "type": "wind", "region": "전북", "lat": 35.4662724, "lng": 126.4557394, "address": "전라북도 고창군 상하면 용정리 1626번지 외 27필지", "owner": "동촌풍력발전㈜", "shareholder": "0", "capacity": "24.75 MW", "planPeriod": "", "prepPeriod": "18년 10월" },
{"title": "평창봉평풍력", "type": "wind", "region": "강원", "lat": 37.5244384, "lng": 128.331891, "address": "강원도 평창군 봉평면 유포리 산200번지", "owner": "청정그린파워㈜", "shareholder": "0", "capacity": "87.0 MW", "planPeriod": "", "prepPeriod": "19년 12월" },
{"title": "양산대리염수봉풍력", "type": "wind", "region": "경남", "lat": 35.4555882, "lng": 128.9795887, "address": "경상남도 양산시 원동면 대리", "owner": "염수봉풍력발전㈜", "shareholder": "0", "capacity": "12.80 MW", "planPeriod": "", "prepPeriod": "18년 2월" },
{"title": "양산원효산풍력", "type": "wind", "region": "경남", "lat": 35.3689676, "lng": 129.0801205, "address": "경상남도 양산시 동면 법기리, 호계동", "owner": "한국동서발전㈜", "shareholder": "0", "capacity": "19.80 MW", "planPeriod": "", "prepPeriod": "18년 12월" },
{"title": "경주산내풍력", "type": "wind", "region": "경북", "lat": 35.7592657, "lng": 129.0706007, "address": "경상북도 경주시 산내면 내일리", "owner": "대주에너지㈜", "shareholder": "0", "capacity": "8.0 MW", "planPeriod": "", "prepPeriod": "18년 5월" },
{"title": "영양영등풍력", "type": "wind", "region": "경북", "lat": 36.6621551, "lng": 129.0165483, "address": "경상북도 영양군 청기면 구매리", "owner": "에스케이디앤디㈜", "shareholder": "0", "capacity": "80.0 MW", "planPeriod": "", "prepPeriod": "19년 11월" },
{"title": "군위풍백풍력", "type": "wind", "region": "경북", "lat": 36.2385301, "lng": 128.8519552, "address": "경상북도 군위군 고로면 석산리, 의성군 춘산면 신흥리", "owner": "에스케이디앤디㈜", "shareholder": "0", "capacity": "66.0 MW", "planPeriod": "", "prepPeriod": "19년 7월" },
{"title": "강원고성도원풍력", "type": "wind", "region": "강원", "lat": 38.2686056999999, "lng": 128.4525489, "address": "강원도 고성군 토성면 도원리", "owner": "에스디오㈜", "shareholder": "0", "capacity": "15.0 MW", "planPeriod": "", "prepPeriod": "18년 12월" },
{"title": "영천보현산풍력", "type": "wind", "region": "경북", "lat": 36.168976, "lng": 129.0246306, "address": "경상북도 영천시 화북면 정각리, 포항시 북구 죽장면 두마리", "owner": "한국동서발전㈜", "shareholder": "0", "capacity": "40.0 MW", "planPeriod": "", "prepPeriod": "18년 9월" },
{"title": "포항호미곶풍력", "type": "wind", "region": "경북", "lat": 36.0226934, "lng": 129.5694686, "address": "경상북도 포항시 남구 구룡포읍 석병리", "owner": "㈜효성", "shareholder": "0", "capacity": "66.0 MW", "planPeriod": "", "prepPeriod": "19년 1월" },
{"title": "영광풍력", "type": "wind", "region": "전남", "lat": 35.238921, "lng": 126.3578265, "address": "전라남도 영광군 백수읍 하사리, 약수리, 염산면 축동리, 신성리, 송암리", "owner": "영광풍력발전㈜", "shareholder": "0", "capacity": "80.50 MW", "planPeriod": "", "prepPeriod": "18년 9월" },
{"title": "동해그린풍력", "type": "wind", "region": "경북", "lat": 36.0406136, "lng": 129.562258, "address": "경상북도 포항시 남구 호미곶면 강사리", "owner": "동해그린풍력㈜", "shareholder": "0", "capacity": "38.40 MW", "planPeriod": "", "prepPeriod": "18년 12월" },
{"title": "양양만월산풍력", "type": "wind", "region": "강원", "lat": 37.9150694, "lng": 128.7159285, "address": "강원도 양양군 현남면 하월천리", "owner": "한국동서발전㈜", "shareholder": "0", "capacity": "20.0 MW", "planPeriod": "", "prepPeriod": "18년 9월" },
{"title": "무안운남풍력", "type": "wind", "region": "전남", "lat": 34.9651783, "lng": 126.3106938, "address": "전라남도 무안군 운남면 내리", "owner": "하사미풍력㈜", "shareholder": "0", "capacity": "18.0 MW", "planPeriod": "", "prepPeriod": "17년 12월" },
{"title": "양산염수봉풍력", "type": "wind", "region": "경남", "lat": 35.420151, "lng": 128.9612183, "address": "경상남도 양산시 원동면", "owner": "한국동서발전㈜", "shareholder": "0", "capacity": "20.70 MW", "planPeriod": "", "prepPeriod": "18년 12월" },
{"title": "군위화산풍력", "type": "wind", "region": "경북", "lat": 36.0767447, "lng": 128.7657363, "address": "경상북도 군위군 고로면 화북리, 영천시 신녕면 화남리", "owner": "현대중공업㈜", "shareholder": "0", "capacity": "14.85 MW", "planPeriod": "", "prepPeriod": "18년 8월" },
{"title": "포항장기곶풍력", "type": "wind", "region": "경북", "lat": 35.9023242, "lng": 129.4765761, "address": "경상북도 포항시 남구 장기면", "owner": "한국동서발전㈜", "shareholder": "0", "capacity": "20.0 MW", "planPeriod": "", "prepPeriod": "17년 12월" },
{"title": "철원한일풍력", "type": "wind", "region": "강원", "lat": 38.2209288, "lng": 127.5026148, "address": "강원도 철원군 근남면", "owner": "㈜한일풍력발전", "shareholder": "0", "capacity": "39.0 MW", "planPeriod": "", "prepPeriod": "17년 8월" },
{"title": "장흥풍력", "type": "wind", "region": "전남", "lat": 34.7606547, "lng": 126.9016131, "address": "전라남도 장흥군 부산면 지천리", "owner": "한국서부발전㈜", "shareholder": "0", "capacity": "20.0 MW", "planPeriod": "", "prepPeriod": "17년 6월" },
{"title": "해남풍력", "type": "wind", "region": "전남", "lat": 34.336754, "lng": 126.539987, "address": "전라남도 해남군 송지면 통호리, 송호리 일원", "owner": "㈜대우건설", "shareholder": "0", "capacity": "30.0 MW", "planPeriod": "", "prepPeriod": "17년 11월" },
{"title": "포항진전풍력", "type": "wind", "region": "경북", "lat": 35.8802645, "lng": 129.3998771, "address": "경상북도 포항시 남구 오천읍 진전리", "owner": "㈜동국S&C", "shareholder": "0", "capacity": "7.50 MW", "planPeriod": "", "prepPeriod": "18년 9월" },
{"title": "태백금봉풍력", "type": "wind", "region": "강원", "lat": 37.1990314, "lng": 128.9464211, "address": "강원도 태백시 창죽동, 화전동", "owner": "대관령풍력㈜", "shareholder": "0", "capacity": "33.0 MW", "planPeriod": "", "prepPeriod": "17년 11월" },
{"title": "압해풍력에너지", "type": "wind", "region": "전남", "lat": 34.9074755, "lng": 126.2991947, "address": "전라남도 신안군 압해면 가룡리 인근 해상", "owner": "㈜압해풍력에너지", "shareholder": "0", "capacity": "20.0 MW", "planPeriod": "", "prepPeriod": "17년 8월" },
{"title": "안동황학산풍력", "type": "wind", "region": "경북", "lat": 36.4027771, "lng": 128.8697746, "address": "경상북도 안동시 길안면 백자리", "owner": "대명지이씨㈜", "shareholder": "0", "capacity": "18.40 MW", "planPeriod": "", "prepPeriod": "18년 6월" },
{"title": "고성풍력", "type": "wind", "region": "강원", "lat": 38.4306989, "lng": 128.4083628, "address": "강원도 고성군 수동면, 현내면, 간성읍, 거진읍", "owner": "㈜지에이파워", "shareholder": "0", "capacity": "333.0 MW", "planPeriod": "", "prepPeriod": "18년 11월" },
{"title": "압해풍력", "type": "wind", "region": "전남", "lat": 34.9074755, "lng": 126.2991947, "address": "전라남도 신안군 압해면 가룡리", "owner": "㈜압해풍력발전소", "shareholder": "0", "capacity": "40.0 MW", "planPeriod": "", "prepPeriod": "17년 12월" },
{"title": "장성부선풍력", "type": "wind", "region": "전남", "lat": 35.2979998, "lng": 126.639742, "address": "전라남도 장성군 삼계면 부성리, 신기리, 화산리 등", "owner": "부선풍력㈜", "shareholder": "0", "capacity": "72.60 MW", "planPeriod": "", "prepPeriod": "17년 12월" },
{"title": "고흥풍력", "type": "wind", "region": "전남", "lat": 34.5971614, "lng": 127.3007816, "address": "전라남도 고흥군 고흥읍 호형리", "owner": "㈜고흥풍력", "shareholder": "0", "capacity": "40.0 MW", "planPeriod": "", "prepPeriod": "18년 2월" },
{"title": "상북풍력", "type": "wind", "region": "경남", "lat": 35.4500624, "lng": 129.0114398, "address": "경상남도 양산시 상북면 내석리", "owner": "㈜동국에스엔씨", "shareholder": "0", "capacity": "9.0 MW", "planPeriod": "", "prepPeriod": "18년 2월" },
{"title": "쌍재풍력", "type": "wind", "region": "경남", "lat": 35.4337814, "lng": 127.7935779, "address": "경상남도 산청군 금서면 특리, 자혜리", "owner": "대우조선해양건설㈜", "shareholder": "0", "capacity": "20.0 MW", "planPeriod": "", "prepPeriod": "18년 1월" },
{"title": "산청(둔철산)풍력", "type": "wind", "region": "경남", "lat": 35.4060505, "lng": 127.9415663, "address": "경상남도 산청군 신등면 모례리, 산청읍 범학리 척지리", "owner": "㈜제이파워", "shareholder": "0", "capacity": "36.80 MW", "planPeriod": "", "prepPeriod": "16년 11월" },
{"title": "정수산풍력", "type": "wind", "region": "경남", "lat": 35.4164813, "lng": 127.9671887, "address": "경상남도 산청군 신등면 율현리, 척지리", "owner": "대명지이씨㈜", "shareholder": "0", "capacity": "21.0 MW", "planPeriod": "", "prepPeriod": "18년 12월" },
{"title": "청송노래산풍력", "type": "wind", "region": "경북", "lat": 36.369454, "lng": 129.0165851, "address": "경상북도 청송군 안덕면 노래리", "owner": "대명지이씨㈜", "shareholder": "0", "capacity": "20.0 MW", "planPeriod": "", "prepPeriod": "18년 1월" },
{"title": "화학산풍력", "type": "wind", "region": "전남", "lat": 34.8826404, "lng": 126.939043, "address": "전라남도 화순군 도암면 우치리, 청풍면 백운리, 이만리", "owner": "대명지이씨㈜", "shareholder": "0", "capacity": "40.0 MW", "planPeriod": "", "prepPeriod": "18년 12월" },
{"title": "한백풍력", "type": "wind", "region": "강원", "lat": 37.1671127, "lng": 129.0306843, "address": "강원도 태백시 통동, 황지동", "owner": "한백풍력발전㈜", "shareholder": "0", "capacity": "20.0 MW", "planPeriod": "", "prepPeriod": "16년 12월" },
{"title": "청산풍력", "type": "wind", "region": "강원", "lat": 37.5631941, "lng": 128.3127372, "address": "강원도 평창군 봉평면 진조리, 횡성군 둔내면 삽교리", "owner": "청산풍력발전㈜", "shareholder": "0", "capacity": "26.0 MW", "planPeriod": "", "prepPeriod": "16년 12월" },
{"title": "영양무창풍력", "type": "wind", "region": "경북", "lat": 36.6358333, "lng": 129.2131894, "address": "경상북도 영양군 영양읍 무창리", "owner": "㈜와이지이", "shareholder": "0", "capacity": "26.40 MW", "planPeriod": "", "prepPeriod": "18년 1월" },
{"title": "신광풍력", "type": "wind", "region": "경북", "lat": 36.0869664, "lng": 129.2620368, "address": "경상북도 포항시 북구 신광면 냉수리", "owner": "대명지이씨㈜", "shareholder": "0", "capacity": "20.0 MW", "planPeriod": "", "prepPeriod": "17년 12월" },
{"title": "남해(망운산)풍력", "type": "wind", "region": "경남", "lat": 34.859522, "lng": 127.8347201, "address": "경상남도 남해군 서면 노구리", "owner": "㈜남해파워", "shareholder": "0", "capacity": "45.0 MW", "planPeriod": "", "prepPeriod": "16년 11월" },
{"title": "군산산단풍력", "type": "wind", "region": "전북", "lat": 35.9499444, "lng": 126.5316376, "address": "전라북도 군산시 비응도동", "owner": "현대중공업㈜", "shareholder": "0", "capacity": "6.60 MW", "planPeriod": "", "prepPeriod": "15년 12월" },
{"title": "횡계풍력", "type": "wind", "region": "강원", "lat": 37.7099183, "lng": 128.7176602, "address": "강원도 평창군 대관령면 횡계리", "owner": "횡계신재생발전㈜", "shareholder": "0", "capacity": "39.0 MW", "planPeriod": "", "prepPeriod": "16년 3월" },
{"title": "대룡산풍력", "type": "wind", "region": "전남", "lat": 34.7985167, "lng": 127.1052556, "address": "전라남도 보성군 미력면 덕림리 내", "owner": "전남풍력발전㈜", "shareholder": "0", "capacity": "11.50 MW", "planPeriod": "", "prepPeriod": "16년 12월" },
{"title": "동대산풍력II", "type": "wind", "region": "울산", "lat": 35.6491409, "lng": 129.3997994, "address": "울산광역시 북구 대안동 내", "owner": "한국동서발전㈜", "shareholder": "0", "capacity": "20.0 MW", "planPeriod": "", "prepPeriod": "17년 12월" },
{"title": "GMK창원공장3호태양광", "type": "wind", "region": "경남", "lat": 35.2066510999999, "lng": 128.6916347, "address": "경상남도 창원시 성산구 창원대로 내", "owner": "케이에스솔라2호㈜", "shareholder": "0", "capacity": "4.0 MW", "planPeriod": "", "prepPeriod": "15년 6월" },
{"title": "영광서진풍력", "type": "wind", "region": "전남", "lat": 35.3333921, "lng": 126.4506972, "address": "전라남도 영광군 법성면 입암리 산34번지 일대", "owner": "㈜영광서진풍력", "shareholder": "0", "capacity": "14.0 MW", "planPeriod": "", "prepPeriod": "16년 11월" },
{"title": "울산동대산풍력", "type": "wind", "region": "울산", "lat": 35.6395440999999, "lng": 129.3841287, "address": "울산광역시 북구 대안동 산288-1 일원", "owner": "동대산풍력발전㈜", "shareholder": "0", "capacity": "20.0 MW", "planPeriod": "", "prepPeriod": "17년 12월" },
{"title": "고성알프스풍력", "type": "wind", "region": "강원", "lat": 38.266583, "lng": 128.3858824, "address": "강원도 고성군 간성읍 흘리 일원", "owner": "고성알프스풍력발전㈜", "shareholder": "0", "capacity": "100.0 MW", "planPeriod": "", "prepPeriod": "16년 12월" },
{"title": "천사풍력2단계", "type": "wind", "region": "전남", "lat": 34.9001435, "lng": 126.0300279, "address": "전라남도 신안군 자은면 고장리 일원", "owner": "㈜천사풍력", "shareholder": "0", "capacity": "45.0 MW", "planPeriod": "", "prepPeriod": "17년 1월" },
{"title": "울진현종산풍력", "type": "wind", "region": "경북", "lat": 36.8630556, "lng": 129.4038889, "address": "경상북도 울진군 기성면, 원남면 현종산", "owner": "에스케이디앤디㈜", "shareholder": "0", "capacity": "60.0 MW", "planPeriod": "", "prepPeriod": "17년 7월" },
{"title": "보성풍력", "type": "wind", "region": "전남", "lat": 34.7327328999999, "lng": 127.0917003, "address": "전라남도 보성군 보성읍 봉산리, 옥평리, 득량면 정흥리 일대", "owner": "㈜보성풍력발전", "shareholder": "0", "capacity": "20.0 MW", "planPeriod": "", "prepPeriod": "17년 6월" },
{"title": "염산풍력", "type": "wind", "region": "전남", "lat": 35.199176, "lng": 126.3390592, "address": "전라남도 영광군 염산면 봉남리 1100번지 일원", "owner": "대명지이씨㈜", "shareholder": "0", "capacity": "36.0 MW", "planPeriod": "", "prepPeriod": "17년 6월" },
{"title": "에임슨파워풍력", "type": "wind", "region": "경남", "lat": 35.4227037, "lng": 129.0296244, "address": "경상남도 양산시 상북면 공원로 305-391 일원", "owner": "에임슨파워㈜", "shareholder": "0", "capacity": "10.0 MW", "planPeriod": "", "prepPeriod": "15년 9월" },
{"title": "영양윈드파워", "type": "wind", "region": "경북", "lat": 36.5780346, "lng": 129.2296136, "address": "경상북도 영양군 영양읍 양구리 산1-31번지 일원", "owner": "영양윈드파워㈜", "shareholder": "0", "capacity": "37.95 MW", "planPeriod": "", "prepPeriod": "17년 9월" },
{"title": "신지풍력", "type": "wind", "region": "전남", "lat": 34.3116202, "lng": 126.8763828, "address": "전라남도 완도군 신지면 월양리 산 20-1일원", "owner": "아일랜드발전투자㈜", "shareholder": "0", "capacity": "18.0 MW", "planPeriod": "", "prepPeriod": "15년 10월" },
{"title": "영광백수풍력", "type": "wind", "region": "전남", "lat": 35.2691687, "lng": 126.3756079, "address": "전라남도 영광군 백수읍 상사리 및 하사리 일원", "owner": "영광백수풍력발전㈜", "shareholder": "0", "capacity": "30.0 MW", "planPeriod": "", "prepPeriod": "15년 12월" },
{"title": "영광약수풍력", "type": "wind", "region": "전남", "lat": 35.2753942, "lng": 126.3892916, "address": "전라남도 영광군 백수읍 약수리 및 지산리 일원", "owner": "영광약수풍력발전㈜", "shareholder": "0", "capacity": "21.0 MW", "planPeriod": "", "prepPeriod": "15년 12월" },
{"title": "대관령풍력", "type": "wind", "region": "강원", "lat": 37.7099183, "lng": 128.7176602, "address": "강원도 평창군 대관령면 횡계리 산1-1등지", "owner": "대관령풍력㈜", "shareholder": "0", "capacity": "23.10 MW", "planPeriod": "", "prepPeriod": "15년 10월" },
{"title": "강릉안인풍력", "type": "wind", "region": "강원", "lat": 37.6493744, "lng": 128.9168689, "address": "강원도 강릉시 강동면 언별리 산274-1, 임곡리 산254 일원", "owner": "한국남부발전㈜", "shareholder": "0", "capacity": "60.0 MW", "planPeriod": "", "prepPeriod": "16년 9월" },
{"title": "태백풍력2단지", "type": "wind", "region": "강원", "lat": 37.3301306, "lng": 128.9926954, "address": "강원도 태백시 하사미동 산220-3 일원", "owner": "한국남부발전㈜", "shareholder": "0", "capacity": "20.0 MW", "planPeriod": "", "prepPeriod": "15년 9월" }
{"title":"제주가시리BESS","type":"ess","region":"제주","lat":33.3828211,"lng":126.7313785,"address":"제주도 서귀포시 표선면 가시리 산47, 3149-60, 3149-45, 선35-1, 산48","owner":"에스케이이터닉스㈜","shareholder":"에스케이디스커버리㈜","capacity":"40 MW","planPeriod":"","prepPeriod":"26년 12월"}
{"title":"무안햇빛BESS","type":"ess","region":"전남","lat":34.9433677,"lng":126.3260616,"address":"전라남도 무안군 운남면 성내리 560-12, 560-13","owner":"탑솔라㈜","shareholder":"오형석","capacity":"80 MW","planPeriod":"","prepPeriod":"27년 12월"}
{"title":"영광햇빛BESS","type":"ess","region":"전남","lat":35.2774843,"lng":126.4904236,"address":"전라남도 영광군 영광읍 신하리 579-6, 579-8","owner":"탑솔라㈜","shareholder":"오형석","capacity":"80 MW","planPeriod":"","prepPeriod":"27년 12월"}
{"title":"신안안좌BESS","type":"ess","region":"전남","lat":34.7232252,"lng":126.081994,"address":"전라남도 신안군 안좌면 구대리 산74-19","owner":"주민산들바람발전㈜","shareholder":"산천리자산운용㈜","capacity":"96 MW","planPeriod":"","prepPeriod":"28년 8월"}
{"title":"신안읍동넥서스BESS","type":"ess","region":"전남","lat":34.7515026,"lng":126.1255285,"address":"전라남도 신안군 안좌면 읍동리 279,280,286,287,288,289,산29","owner":"넥서스그린에너지㈜","shareholder":"코어그린에너지","capacity":"27 MW","planPeriod":"","prepPeriod":"26년 12월"}
{"title":"고흥나로BESS","type":"ess","region":"전남","lat":34.5780024,"lng":127.2529844,"address":"전라남도 고흥군 풍양면 상림리 180-1, 180-6, 180-7, 180-8 등 9필지","owner":"주식회사 비에스한양","shareholder":"㈜보성","capacity":"96 MW","planPeriod":"","prepPeriod":"27년 3월"}
{"title":"광양황금BESS","type":"ess","region":"전남","lat":34.917616,"lng":127.6314011,"address":"전라남도 광양시 황금동 2318-6번지","owner":"주식회사 비에스한양","shareholder":"㈜보성","capacity":"96 MW","planPeriod":"","prepPeriod":"27년 3월"}
{"title":"진도군내BESS","type":"ess","region":"전남","lat":34.5145296,"lng":126.2808688,"address":"전라남도 진도군 군내면 분토리 1326-1 등 8필지","owner":"한국남부발전㈜","shareholder":"한국전력공사","capacity":"48 MW","planPeriod":"","prepPeriod":"26년 12월"}
{"title":"제주북촌BESS","type":"ess","region":"제주","lat":33.5313533,"lng":126.6898472,"address":"제주 제주시 조천읍 북촌리 941-21번지 일원","owner":"㈜제주북촌베스발전소","shareholder":"한국동서발전㈜","capacity":"35 MW","planPeriod":"","prepPeriod":"26년 11월"}
{"title":"제주안덕BESS","type":"ess","region":"제주","lat":33.2373862,"lng":126.3418842,"address":"제주 서귀포시 안덕면 화순리 610","owner":"㈜남제주빛드림에너지","shareholder":"BEP","capacity":"23 MW","planPeriod":"","prepPeriod":"25년 11월"}
{"title":"제주한림BESS","type":"ess","region":"제주","lat":33.4010846,"lng":126.2708764,"address":"제주 제주시 한림읍 동명리 673-1번지","owner":"한림그린에너지㈜","shareholder":"에스피브아㈜, ㈜건화","capacity":"10 MW","planPeriod":"","prepPeriod":"27년 4월"}
]
